{"ResultSet":{"totalResultsAvailable":384,"totalResultsReturned":10,"firstResultPosition":1,"ResultSetMapUrl":"http:\/\/maps.yahoo.com\/broadband\/?q1=Santa+Clara%2C+CA+95054&tt=coffee&tp=1","Result":[{"Title":"Starbucks","Address":"3700 Thomas Rd","City":"Santa Clara","State":"CA","Phone":"(408) 980-9376","Latitude":"37.386029","Longitude":"-121.960202","Rating":{"AverageRating":"","TotalRatings":"0","TotalReviews":"0"},"Distance":"0.39","Url":"http:\/\/local.yahoo.com\/details?id=28739156&stx=coffee&csz=Santa+Clara+CA&ed=jCaHhK160Swn3KGEnNpOIB8VAP0kxMr_SDU2CV5HIMJf6FTB3WF9XmKhjTYVnGlcoDb491sf","ClickUrl":"http:\/\/local.yahoo.com\/details?id=28739156&stx=coffee&csz=Santa+Clara+CA&ed=jCaHhK160Swn3KGEnNpOIB8VAP0kxMr_SDU2CV5HIMJf6FTB3WF9XmKhjTYVnGlcoDb491sf","MapUrl":"http:\/\/maps.yahoo.com\/maps_result?name=Starbucks&desc=4089809376&csz=Santa+Clara+CA&qty=9&cs=9&ed=jCaHhK160Swn3KGEnNpOIB8VAP0kxMr_SDU2CV5HIMJf6FTB3WF9XmKhjTYVnGlcoDb491sf&gid1=28739156","BusinessUrl":"http:\/\/www.starbucks.com\/","BusinessClickUrl":"http:\/\/www.starbucks.com\/"},{"Title":"Starbucks","Address":"3970 Rivermark Plz","City":"Santa Clara","State":"CA","Phone":"(408) 855-0980","Latitude":"37.395306","Longitude":"-121.947352","Rating":{"AverageRating":"5","TotalRatings":"1","TotalReviews":"0"},"Distance":"0.79","Url":"http:\/\/local.yahoo.com\/details?id=21583070&stx=coffee&csz=Santa+Clara+CA&ed=ShDFEa160SzeEGJNrFkBXOz_DEsqypb_.4zMiQLvGpTDLiWh4DBo5IF1jExyFgcUysxDScWITtkBsw--","ClickUrl":"http:\/\/local.yahoo.com\/details?id=21583070&stx=coffee&csz=Santa+Clara+CA&ed=ShDFEa160SzeEGJNrFkBXOz_DEsqypb_.4zMiQLvGpTDLiWh4DBo5IF1jExyFgcUysxDScWITtkBsw--","MapUrl":"http:\/\/maps.yahoo.com\/maps_result?name=Starbucks&desc=4088550980&csz=Santa+Clara+CA&qty=9&cs=9&ed=ShDFEa160SzeEGJNrFkBXOz_DEsqypb_.4zMiQLvGpTDLiWh4DBo5IF1jExyFgcUysxDScWITtkBsw--&gid1=21583070","BusinessUrl":"http:\/\/www.starbucks.com\/","BusinessClickUrl":"http:\/\/www.starbucks.com\/"},{"Title":"Fantasia Coffee & Tea","Address":"3969 Rivermark Plz","City":"Santa Clara","State":"CA","Phone":"(408) 970-8688","Latitude":"37.395207","Longitude":"-121.946298","Rating":{"AverageRating":"5","TotalRatings":"2","TotalReviews":"2","LastReviewDate":"1198029488"},"Distance":"0.85","Url":"http:\/\/local.yahoo.com\/details?id=32129046&stx=coffee&csz=Santa+Clara+CA&ed=BEDqUq160Sw5jgWbrDf7U7MtGeVxES4e7YnhXykiukIW2mJYtJxdK8mEEHBQNQ8KzgBeMhp9lv1lBg--","ClickUrl":"http:\/\/local.yahoo.com\/details?id=32129046&stx=coffee&csz=Santa+Clara+CA&ed=BEDqUq160Sw5jgWbrDf7U7MtGeVxES4e7YnhXykiukIW2mJYtJxdK8mEEHBQNQ8KzgBeMhp9lv1lBg--","MapUrl":"http:\/\/maps.yahoo.com\/maps_result?name=Fantasia+Coffee+%26+Tea&desc=4089708688&csz=Santa+Clara+CA&qty=9&cs=9&ed=BEDqUq160Sw5jgWbrDf7U7MtGeVxES4e7YnhXykiukIW2mJYtJxdK8mEEHBQNQ8KzgBeMhp9lv1lBg--&gid1=32129046","BusinessUrl":"","BusinessClickUrl":""},{"Title":"The Prolific Oven Bakery & Cafe","Address":"3938 Rivermark Plz","City":"Santa Clara","State":"CA","Phone":"(408) 986-8388","Latitude":"37.394689","Longitude":"-121.946072","Rating":{"AverageRating":"4","TotalRatings":"13","TotalReviews":"10","LastReviewDate":"1187027975"},"Distance":"0.85","Url":"http:\/\/local.yahoo.com\/details?id=28516841&stx=coffee&csz=Santa+Clara+CA&ed=mTqcl6160SxI5tyqLNlm4.I8NX3LlXCL6.vBXiIZeXJkHBTC_ZcR_tBF8OOCr0_EmFT..f.apaP0OQ--","ClickUrl":"http:\/\/local.yahoo.com\/details?id=28516841&stx=coffee&csz=Santa+Clara+CA&ed=mTqcl6160SxI5tyqLNlm4.I8NX3LlXCL6.vBXiIZeXJkHBTC_ZcR_tBF8OOCr0_EmFT..f.apaP0OQ--","MapUrl":"http:\/\/maps.yahoo.com\/maps_result?name=The+Prolific+Oven+Bakery+%26+Cafe&desc=4089868388&csz=Santa+Clara+CA&qty=9&cs=9&ed=mTqcl6160SxI5tyqLNlm4.I8NX3LlXCL6.vBXiIZeXJkHBTC_ZcR_tBF8OOCr0_EmFT..f.apaP0OQ--&gid1=28516841","BusinessUrl":"http:\/\/www.prolific-oven.com\/","BusinessClickUrl":"http:\/\/www.prolific-oven.com\/"},{"Title":"Peet's Coffee & Tea","Address":"3932 Rivermark Plz","City":"Santa Clara","State":"CA","Phone":"(408) 213-0810","Latitude":"37.394578","Longitude":"-121.946003","Rating":{"AverageRating":"4.5","TotalRatings":"4","TotalReviews":"2","LastReviewDate":"1170808696"},"Distance":"0.85","Url":"http:\/\/local.yahoo.com\/details?id=21575613&stx=coffee&csz=Santa+Clara+CA&ed=gzoimq160SwdMLh7xmNvkkP7540xhP1RPdFWz2CpACmnQ0ohJx8RMXQ6IA_IFmfU.mgDxsYWH5cvRw--","ClickUrl":"http:\/\/local.yahoo.com\/details?id=21575613&stx=coffee&csz=Santa+Clara+CA&ed=gzoimq160SwdMLh7xmNvkkP7540xhP1RPdFWz2CpACmnQ0ohJx8RMXQ6IA_IFmfU.mgDxsYWH5cvRw--","MapUrl":"http:\/\/maps.yahoo.com\/maps_result?name=Peet%27s+Coffee+%26+Tea&desc=4082130810&csz=Santa+Clara+CA&qty=9&cs=9&ed=gzoimq160SwdMLh7xmNvkkP7540xhP1RPdFWz2CpACmnQ0ohJx8RMXQ6IA_IFmfU.mgDxsYWH5cvRw--&gid1=21575613","BusinessUrl":"http:\/\/peets.com\/","BusinessClickUrl":"http:\/\/peets.com\/"},{"Title":"Mission City Coffee Roasting","Address":"4300 Great America Pky, #172","City":"Santa Clara","State":"CA","Phone":"(408) 970-0913","Latitude":"37.392794","Longitude":"-121.976975","Rating":{"AverageRating":"","TotalRatings":"0","TotalReviews":"0"},"Distance":"0.88","Url":"http:\/\/local.yahoo.com\/details?id=21583044&stx=coffee&csz=Santa+Clara+CA&ed=V.gYlq160SwES4hNUnZN9cGvgXJ0DFonSNeVAVXS_.s08jkGt9l7WGjuu2e0A2pE_TRCj_oAYXfzzzPSmcpHMnpbhbM-","ClickUrl":"http:\/\/local.yahoo.com\/details?id=21583044&stx=coffee&csz=Santa+Clara+CA&ed=V.gYlq160SwES4hNUnZN9cGvgXJ0DFonSNeVAVXS_.s08jkGt9l7WGjuu2e0A2pE_TRCj_oAYXfzzzPSmcpHMnpbhbM-","MapUrl":"http:\/\/maps.yahoo.com\/maps_result?name=Mission+City+Coffee+Roasting&desc=4089700913&csz=Santa+Clara+CA&qty=9&cs=9&ed=V.gYlq160SwES4hNUnZN9cGvgXJ0DFonSNeVAVXS_.s08jkGt9l7WGjuu2e0A2pE_TRCj_oAYXfzzzPSmcpHMnpbhbM-&gid1=21583044","BusinessUrl":"","BusinessClickUrl":""},{"Title":"Coffee to You","Address":"720 Aldo Ave","City":"Santa Clara","State":"CA","Phone":"(408) 986-0767","Latitude":"37.384057","Longitude":"-121.947822","Rating":{"AverageRating":"","TotalRatings":"0","TotalReviews":"0"},"Distance":"0.89","Url":"http:\/\/local.yahoo.com\/details?id=28796116&stx=coffee&csz=Santa+Clara+CA&ed=wPM9Tq160SyFBUVygI95hS0T2ih_lp5XIjhYWI1DXM7vIeimDu7YSBiDXGL2Co5miciK9g--","ClickUrl":"http:\/\/local.yahoo.com\/details?id=28796116&stx=coffee&csz=Santa+Clara+CA&ed=wPM9Tq160SyFBUVygI95hS0T2ih_lp5XIjhYWI1DXM7vIeimDu7YSBiDXGL2Co5miciK9g--","MapUrl":"http:\/\/maps.yahoo.com\/maps_result?name=Coffee+to+You&desc=4089860767&csz=Santa+Clara+CA&qty=9&cs=9&ed=wPM9Tq160SyFBUVygI95hS0T2ih_lp5XIjhYWI1DXM7vIeimDu7YSBiDXGL2Co5miciK9g--&gid1=28796116","BusinessUrl":"","BusinessClickUrl":""},{"Title":"Golden State Coffee Service","Address":"3130 Alfred St","City":"Santa Clara","State":"CA","Phone":"(831) 724-4525","Latitude":"37.378727","Longitude":"-121.958734","Rating":{"AverageRating":"","TotalRatings":"0","TotalReviews":"0"},"Distance":"0.90","Url":"http:\/\/local.yahoo.com\/details?id=28763210&stx=coffee&csz=Santa+Clara+CA&ed=mDmZnK160SwTKbbD.QeFgB.gKHlrV1_ELOLXmwz3GbdDcfsfEIXfzD7rHN9o0od7VhibPD1U","ClickUrl":"http:\/\/local.yahoo.com\/details?id=28763210&stx=coffee&csz=Santa+Clara+CA&ed=mDmZnK160SwTKbbD.QeFgB.gKHlrV1_ELOLXmwz3GbdDcfsfEIXfzD7rHN9o0od7VhibPD1U","MapUrl":"http:\/\/maps.yahoo.com\/maps_result?name=Golden+State+Coffee+Service&desc=8317244525&csz=Santa+Clara+CA&qty=9&cs=9&ed=mDmZnK160SwTKbbD.QeFgB.gKHlrV1_ELOLXmwz3GbdDcfsfEIXfzD7rHN9o0od7VhibPD1U&gid1=28763210","BusinessUrl":"","BusinessClickUrl":""},{"Title":"First Choice Svc Incorporated","Address":"3130 Alfred St","City":"Santa Clara","State":"CA","Phone":"(408) 727-4014","Latitude":"37.378727","Longitude":"-121.958734","Rating":{"AverageRating":"","TotalRatings":"0","TotalReviews":"0"},"Distance":"0.90","Url":"http:\/\/local.yahoo.com\/details?id=21575618&stx=coffee&csz=Santa+Clara+CA&ed=mDmZnK160SwTKbbD.QeFgB.gKHlrV1_ELOLXmwz3GbdDcfsfEIXfzD7rHN9o0od7VhibPD1U","ClickUrl":"http:\/\/local.yahoo.com\/details?id=21575618&stx=coffee&csz=Santa+Clara+CA&ed=mDmZnK160SwTKbbD.QeFgB.gKHlrV1_ELOLXmwz3GbdDcfsfEIXfzD7rHN9o0od7VhibPD1U","MapUrl":"http:\/\/maps.yahoo.com\/maps_result?name=First+Choice+Svc+Incorporated&desc=4087274014&csz=Santa+Clara+CA&qty=9&cs=9&ed=mDmZnK160SwTKbbD.QeFgB.gKHlrV1_ELOLXmwz3GbdDcfsfEIXfzD7rHN9o0od7VhibPD1U&gid1=21575618","BusinessUrl":"http:\/\/firstchoiceservices.com\/","BusinessClickUrl":"http:\/\/firstchoiceservices.com\/"},{"Title":"Specialty's","Address":"3399 Bowers Ave","City":"Santa Clara","State":"CA","Phone":"","Latitude":"37.382184","Longitude":"-121.977588","Rating":{"AverageRating":"3","TotalRatings":"2","TotalReviews":"2","LastReviewDate":"1202583221"},"Distance":"1.12","Url":"http:\/\/local.yahoo.com\/details?id=40991099&stx=coffee&csz=Santa+Clara+CA&ed=TTy9wa160Sz15vcQeaDd011934SeRTKNQaSordVikgWNQaeA8dcLmb2WaIZtP7Lip_ghfiuk0A--","ClickUrl":"http:\/\/local.yahoo.com\/details?id=40991099&stx=coffee&csz=Santa+Clara+CA&ed=TTy9wa160Sz15vcQeaDd011934SeRTKNQaSordVikgWNQaeA8dcLmb2WaIZtP7Lip_ghfiuk0A--","MapUrl":"http:\/\/maps.yahoo.com\/maps_result?name=Specialty%27s&csz=Santa+Clara+CA&qty=9&cs=9&ed=TTy9wa160Sz15vcQeaDd011934SeRTKNQaSordVikgWNQaeA8dcLmb2WaIZtP7Lip_ghfiuk0A--&gid1=40991099","BusinessUrl":"http:\/\/www.specialtysdirect.com\/","BusinessClickUrl":"http:\/\/www.specialtysdirect.com\/"}]}}
